[
  {
    "stop_id": "140365",
    "name": "OLMI BALDANZESE",
    "lat": 43.843222,
    "lon": 11.161052,
    "directions": [
      0
    ],
    "orari": [
      "08:56",
      "17:55"
    ]
  },
  {
    "stop_id": "140457",
    "name": "OLMI ALLENDE",
    "lat": 43.844378,
    "lon": 11.158928,
    "directions": [
      0
    ],
    "orari": [
      "09:00",
      "18:00"
    ]
  },
  {
    "stop_id": "140458",
    "name": "PRATIGNONE OLMI",
    "lat": 43.844888,
    "lon": 11.15906,
    "directions": [
      0
    ],
    "orari": [
      "07:49",
      "08:03",
      "08:31",
      "09:01",
      "09:21",
      "16:39",
      "17:03",
      "17:24",
      "17:39",
      "18:00",
      "18:14",
      "18:44"
    ]
  },
  {
    "stop_id": "140460",
    "name": "PRATIGNONE ALLENDE",
    "lat": 43.84518,
    "lon": 11.15911,
    "directions": [
      1
    ],
    "orari": [
      "07:41",
      "07:53",
      "08:11",
      "08:35",
      "09:13",
      "09:26",
      "16:43",
      "17:07",
      "17:28",
      "17:43",
      "18:05",
      "18:21"
    ]
  },
  {
    "stop_id": "140728",
    "name": "ALLENDE MAESTRI DEL LAVORO",
    "lat": 43.835437,
    "lon": 11.153292,
    "directions": [
      0,
      1
    ],
    "orari": [
      "08:00",
      "16:47",
      "16:56"
    ]
  },
  {
    "stop_id": "140793",
    "name": "ALLENDE EINSTEIN",
    "lat": 43.837355,
    "lon": 11.153938,
    "directions": [
      1
    ],
    "orari": [
      "07:59",
      "16:46"
    ]
  },
  {
    "stop_id": "140887",
    "name": "BALDANZESE DEL PRATIGNONE",
    "lat": 43.841138,
    "lon": 11.1665,
    "directions": [
      0
    ],
    "orari": [
      "08:59",
      "17:59"
    ]
  },
  {
    "stop_id": "140906",
    "name": "BALDANZESE DEI GELSI",
    "lat": 43.841122,
    "lon": 11.166638,
    "directions": [
      0
    ],
    "orari": [
      "08:57",
      "17:56"
    ]
  },
  {
    "stop_id": "140911",
    "name": "MANETTI & ROBERTS",
    "lat": 43.844643,
    "lon": 11.169688,
    "directions": [
      0
    ],
    "orari": [
      "08:59",
      "17:58"
    ]
  },
  {
    "stop_id": "140936",
    "name": "PRATIGNONE FS",
    "lat": 43.848648,
    "lon": 11.162095,
    "directions": [
      1
    ],
    "orari": [
      "07:40",
      "07:52",
      "08:10",
      "08:34",
      "09:12",
      "09:25",
      "16:42",
      "17:06",
      "17:27",
      "17:42",
      "18:04",
      "18:20"
    ]
  },
  {
    "stop_id": "140937",
    "name": "CAPONNETTO PRATIGNONE FS",
    "lat": 43.848692,
    "lon": 11.162473,
    "directions": [
      0,
      1
    ],
    "orari": [
      "07:38",
      "07:50",
      "08:05",
      "08:08",
      "08:32",
      "09:02",
      "09:10",
      "09:22",
      "09:23",
      "16:40",
      "17:04",
      "17:25",
      "17:40",
      "18:02",
      "18:15",
      "18:18",
      "18:45"
    ]
  },
  {
    "stop_id": "141130",
    "name": "BALDANZESE DEGLI OLMI",
    "lat": 43.843822,
    "lon": 11.169095,
    "directions": [
      0
    ],
    "orari": [
      "08:58",
      "17:57"
    ]
  },
  {
    "stop_id": "141248",
    "name": "PRATIGNONE ZONA INDUSTRIALE",
    "lat": 43.846893,
    "lon": 11.16069,
    "directions": [
      1
    ],
    "orari": [
      "07:40",
      "07:52",
      "08:10",
      "08:34",
      "09:12",
      "09:25",
      "16:42",
      "17:06",
      "17:27",
      "17:42",
      "18:04",
      "18:20"
    ]
  },
  {
    "stop_id": "141249",
    "name": "PRATIGNONE DELLE CALANDRE",
    "lat": 43.84731,
    "lon": 11.161202,
    "directions": [
      0
    ],
    "orari": [
      "07:49",
      "08:04",
      "08:31",
      "09:01",
      "09:21",
      "16:39",
      "17:03",
      "17:24",
      "17:39",
      "18:01",
      "18:14",
      "18:44"
    ]
  }
]